,City,Cloudiness,Country,Date,Humidity,Lat,Lng,Max Temp,Wind Speed
0,Tuktoyaktuk,20,CA,1559344594,69,69.44,-133.03,46.4,16.11
1,Kaitangata,79,NZ,1559344596,75,-46.28,169.85,45.0,8.01
2,Lorengau,89,PG,1559344591,84,-2.02,147.27,82.97,7.78
3,Presidencia Roque Saenz Pena,71,AR,1559344755,94,-26.79,-60.44,57.95,4.7
4,Ahuimanu,40,US,1559344756,51,21.44,-157.84,86.0,17.22
5,Dikson,100,RU,1559344572,96,73.51,80.55,32.21,12.37
6,Thompson,90,CA,1559344759,47,55.74,-97.86,42.8,14.99
7,Port Alfred,71,ZA,1559344561,94,-33.59,26.89,62.01,1.01
8,San Cristobal,75,EC,1559344762,76,-0.39,-78.55,62.6,11.41
9,Mount Gambier,90,AU,1559344560,87,-37.83,140.78,50.0,6.93
10,Punta Arenas,75,CL,1559344569,86,-53.16,-70.91,37.4,14.99
11,Kahului,40,US,1559344367,43,20.89,-156.47,89.6,19.46
12,Kruisfontein,100,ZA,1559344605,96,-34.0,24.73,53.45,2.1
13,Mahibadhoo,91,MV,1559344768,74,3.78,72.97,84.05,10.36
14,Yar-Sale,49,RU,1559344558,90,66.83,70.83,27.53,9.04
15,Hermanus,0,ZA,1559344593,96,-34.42,19.24,57.0,3.98
16,Shelopugino,96,RU,1559344772,72,51.65,117.56,52.01,3.29
17,Yeppoon,90,AU,1559344773,44,-23.13,150.74,59.0,5.82
18,Kodiak,1,US,1559344615,42,39.95,-94.76,81.0,5.82
19,Hilo,90,US,1559344541,65,19.71,-155.08,84.0,12.75
20,Bluff,91,AU,1559344587,40,-23.58,149.07,59.21,10.45
21,Waitati,86,NZ,1559344778,88,-45.75,170.57,44.01,14.0
22,Cape Town,0,ZA,1559344427,100,-33.93,18.42,57.99,3.36
23,Butaritari,96,KI,1559344584,74,3.07,172.79,84.05,11.45
24,Saldanha,0,PT,1559344587,50,41.42,-6.55,67.31,3.15
25,Ushuaia,90,AR,1559344563,80,-54.81,-68.31,33.8,18.34
26,Anloga,20,GH,1559344784,88,5.79,0.9,77.0,11.41
27,Mataura,98,NZ,1559344571,85,-46.19,168.86,44.01,5.01
28,Bouca,100,CF,1559344787,78,6.51,18.28,73.43,2.59
29,Upernavik,37,GL,1559344788,88,72.79,-56.15,31.13,10.49
30,Rikitea,21,PF,1559344573,81,-23.12,-134.97,77.57,10.96
31,Ancud,90,CL,1559344606,100,-41.87,-73.83,50.0,12.75
32,Khatanga,73,RU,1559344607,63,71.98,102.47,53.09,11.97
33,Vaini,100,IN,1559344594,85,15.34,74.49,80.09,1.43
34,Sao Joao da Barra,0,BR,1559344794,78,-21.64,-41.05,78.8,6.93
35,Havelock,20,US,1559344764,57,34.88,-76.9,82.0,12.75
36,Ulladulla,0,AU,1559344797,71,-35.36,150.48,54.0,8.05
37,Ambilobe,18,MG,1559344798,95,-13.19,49.05,69.47,3.09
38,Yartsevo,59,RU,1559344800,83,55.07,32.69,51.11,4.52
39,Golden,75,CA,1559344801,33,51.3,-116.96,75.2,4.7
40,Kendari,90,ID,1559344802,94,-3.99,122.52,77.57,1.41
41,Vila,0,IT,1559344804,77,45.18,8.4,66.99,2.24
42,Atuona,21,PF,1559344562,76,-9.8,-139.03,82.43,14.45
43,Jamestown,18,AU,1559344326,76,-33.21,138.6,52.55,9.04
44,East London,38,ZA,1559344580,77,-33.02,27.91,60.47,1.79
45,Lavrentiya,85,RU,1559344573,61,65.58,-170.99,48.95,9.31
46,Celestun,100,MX,1559344810,83,20.87,-90.4,83.15,18.12
47,Tambilil,91,PH,1559344811,59,5.96,124.67,86.03,2.04
48,Port Blair,100,IN,1559344813,73,11.67,92.75,85.67,13.2
49,Bredasdorp,0,ZA,1559344814,87,-34.53,20.04,46.4,2.24
50,Qaanaaq,5,GL,1559344569,82,77.48,-69.36,23.93,5.12
51,Hobart,20,AU,1559344566,76,-42.88,147.33,54.0,8.05
52,Georgetown,40,GY,1559344592,83,6.8,-58.16,80.6,9.17
53,Hongjiang,94,CN,1559344819,92,27.21,109.83,67.67,1.48
54,Buraydah,0,SA,1559344821,25,26.33,43.97,86.0,4.7
55,Pacifica,40,US,1559344822,63,37.61,-122.49,78.01,19.46
56,Alofi,40,NU,1559344823,74,-19.06,-169.92,78.8,5.82
57,Busselton,72,AU,1559344565,72,-33.64,115.35,55.0,15.77
58,Huangchuan,90,CN,1559344826,93,24.57,102.46,61.0,8.95
59,Hithadhoo,100,MV,1559344578,76,-0.6,73.08,82.79,10.27
60,Lagoa,0,PT,1559344829,46,37.14,-8.45,71.6,5.82
61,Udomlya,100,RU,1559344830,97,57.88,35.0,52.55,5.19
62,Broken Hill,90,AU,1559344831,76,-31.97,141.45,50.0,12.75
63,Suntar,29,RU,1559344832,39,62.16,117.65,60.65,5.53
64,San Juan,40,PH,1559344704,70,14.6,121.03,86.0,9.17
65,Kuruman,99,ZA,1559344836,67,-27.46,23.43,48.0,9.06
66,Aklavik,20,CA,1559344613,30,68.22,-135.01,59.0,11.41
67,Kirovskiy,0,RU,1559344838,62,45.09,133.51,61.91,6.62
68,Pangoa,100,PE,1559344839,67,-12.12,-73.0,74.33,1.7
69,Carutapera,100,BR,1559344573,93,-1.2,-46.02,77.39,5.35
70,Ler,75,NO,1559344842,81,63.2,10.3,44.6,16.11
71,Kenai,90,US,1559344843,76,60.55,-151.26,57.0,10.29
72,Andrychow,40,PL,1559344844,87,49.85,19.34,62.01,1.12
73,Borba,0,PT,1559344846,30,38.81,-7.46,70.91,3.09
74,Flinders,0,AU,1559344847,71,-34.58,150.85,63.0,8.05
75,Flin Flon,75,CA,1559344848,29,54.77,-101.88,60.8,14.99
76,Avarua,0,CK,1559344575,78,-21.21,-159.78,78.8,16.11
77,Torbay,90,CA,1559344583,87,47.66,-52.73,36.0,9.17
78,Severo-Kurilsk,55,RU,1559344612,92,50.68,156.12,40.13,12.46
79,Athabasca,52,CA,1559344500,36,54.72,-113.29,72.17,5.48
80,Iesolo,0,IT,1559344854,55,45.53,12.64,66.2,4.7
81,Kavieng,72,PG,1559344855,72,-2.57,150.8,85.13,11.45
82,Nuuk,75,GL,1559344856,86,64.17,-51.74,37.4,6.93
83,Saint-Leu,0,RE,1559344858,82,-21.15,55.28,70.0,5.82
84,Albany,1,US,1559344577,59,42.65,-73.75,73.4,8.05
85,Savannah Bight,100,HN,1559344860,85,16.45,-85.85,83.69,15.05
86,Lucapa,33,AO,1559344861,44,-8.42,20.74,70.91,3.53
87,Moche,20,PE,1559344863,88,-8.17,-79.01,68.0,10.29
88,La Crosse,1,US,1559344864,51,43.8,-91.24,87.8,10.29
89,Hervey Bay,40,AU,1559344865,42,-25.3,152.85,66.0,8.05
90,Colon,1,US,1559344867,34,41.3,-96.61,84.2,8.05
91,Tianpeng,1,CN,1559344868,70,28.88,112.34,73.43,4.54
92,Seymchan,57,RU,1559344869,44,62.93,152.39,62.63,9.95
93,Ballina,80,IE,1559344870,89,54.11,-9.15,55.0,7.0
94,Tuatapere,98,NZ,1559344869,85,-46.13,167.69,44.01,5.01
95,Mitsamiouli,3,KM,1559344873,72,-11.38,43.28,80.09,22.59
96,Tabou,100,CI,1559344874,97,4.42,-7.36,73.07,2.82
97,Barrow,0,AR,1559344579,91,-38.31,-60.23,45.53,7.96
98,Maragogi,18,BR,1559344602,92,-9.01,-35.22,73.79,1.48
99,Leningradskiy,75,RU,1559344586,95,69.38,178.42,32.93,7.65
100,Sao Filipe,0,CV,1559344879,87,14.9,-24.5,72.89,19.8
101,Puerto Ayora,20,EC,1559344574,74,-0.74,-90.35,78.8,18.34
102,Vardo,1,US,1559344568,44,39.62,-77.74,82.4,4.7
103,Dongying,95,CN,1559344726,26,37.43,118.67,79.19,7.16
104,Carnarvon,58,ZA,1559344609,64,-30.97,22.13,50.21,4.65
105,Bambous Virieux,75,MU,1559344885,94,-20.34,57.76,73.4,4.74
106,Ribeira Grande,54,PT,1559344543,93,38.52,-28.7,66.59,14.27
107,Goundam,0,ML,1559344887,13,16.42,-3.66,94.31,7.52
108,Port Hardy,75,CA,1559344826,63,50.7,-127.42,62.6,11.41
109,Tarakan,75,ID,1559344890,94,3.3,117.63,78.8,5.82
110,Yellowknife,20,CA,1559344578,33,62.45,-114.38,51.8,6.93
111,Balkhash,23,KZ,1559344892,32,46.84,74.98,70.73,6.82
112,Wattegama,99,LK,1559344893,87,7.35,80.68,74.15,3.74
113,Leopold,1,US,1559344895,61,38.1,-86.58,78.8,3.62
114,Papara,20,BR,1559344896,74,-3.98,-38.73,86.0,9.17
115,Canon City,90,US,1559344897,58,39.46,-117.13,53.6,6.71
116,Stepnogorsk,93,KZ,1559344899,79,52.35,71.88,62.81,9.91
117,Port Elizabeth,1,US,1559344599,47,39.31,-74.98,82.4,5.3
118,Belaya Gora,100,RU,1559344901,52,68.54,146.19,53.27,8.79
119,Maues,95,BR,1559344902,94,-3.38,-57.72,77.21,1.32
120,Khurba,76,RU,1559344904,61,50.41,136.89,52.91,6.4
121,Mushie,95,CD,1559344905,95,-3.02,16.92,71.99,1.68
122,Maningrida,87,AU,1559344906,58,-12.05,134.23,76.85,17.13
123,New Norfolk,20,AU,1559344436,76,-42.78,147.06,54.0,8.05
124,Kalamare,0,BW,1559344909,48,-22.93,26.57,56.51,5.14
125,Bundaberg,40,AU,1559344910,37,-24.87,152.35,66.0,8.05
126,Santa Rosa,100,AR,1559344855,90,-36.62,-64.29,49.13,7.38
127,Bonthe,100,SL,1559344915,82,7.53,-12.5,80.09,6.82
128,Castro,90,CL,1559344567,100,-42.48,-73.76,50.0,12.75
129,San Patricio,100,PY,1559344593,95,-26.98,-56.83,60.47,4.07
130,Klyuchi,71,RU,1559344918,67,52.25,79.17,60.47,1.81
131,Newport,19,GB,1559344848,93,51.59,-3.0,57.99,4.7
132,Naze,40,NG,1559344921,94,5.43,7.07,77.0,3.06
133,Zhigansk,20,RU,1559344923,49,66.77,123.37,50.57,12.44
134,Klaksvik,92,FO,1559344924,81,62.23,-6.59,44.6,13.87
135,Bahia Blanca,50,AR,1559344645,76,-38.72,-62.27,51.29,10.45
136,Codrington,1,AU,1559344611,81,-28.95,153.24,57.99,8.05
137,Teya,90,MX,1559344928,94,21.05,-89.07,80.01,2.24
138,Tigil,100,RU,1559344929,56,57.8,158.67,58.49,2.39
139,Poum,0,MK,1559344612,81,41.28,20.71,48.2,1.12
140,Sorland,100,NO,1559344615,80,67.67,12.69,43.19,23.44
141,Sehithwa,0,BW,1559344933,38,-20.47,22.7,58.31,7.61
142,Luderitz,0,NA,1559344934,93,-26.65,15.16,51.8,8.05
143,Grindavik,75,IS,1559344936,75,63.84,-22.43,46.4,9.17
144,Saskylakh,61,RU,1559344571,69,71.97,114.09,46.07,15.52
145,Ilulissat,0,GL,1559344938,65,69.22,-51.1,41.0,9.17
146,Silikatnyy,20,RU,1559344939,93,53.99,48.33,64.4,4.47
147,Mar del Plata,99,AR,1559344610,85,-46.43,-67.52,43.01,8.46
148,Kapaa,40,US,1559344285,69,22.08,-159.32,84.2,11.41
149,Omsukchan,89,RU,1559344943,46,62.53,155.8,59.75,14.7
150,Saint-Francois,0,FR,1559344584,87,46.42,3.91,57.2,2.71
151,Chokurdakh,97,RU,1559344600,77,70.62,147.9,36.89,12.37
152,Mahebourg,75,MU,1559344572,94,-20.41,57.7,73.4,4.74
153,Lachi,3,PK,1559344948,25,33.38,71.34,79.01,6.96
154,Cedar City,75,US,1559344948,40,37.68,-113.06,73.0,10.29
155,Margate,20,AU,1559344951,76,-43.03,147.26,54.0,8.05
156,Arenapolis,86,BR,1559344952,56,-14.45,-56.85,78.83,3.47
157,Lebu,75,ET,1559344595,77,8.96,38.73,60.8,4.7
158,Xai-Xai,0,MZ,1559344954,89,-25.04,33.64,63.89,4.12
159,Tupancireta,92,BR,1559344956,94,-29.08,-53.84,56.69,12.35
160,Kargasok,97,RU,1559344957,74,59.06,80.87,42.65,5.55
161,Solnechnyy,88,RU,1559344958,71,50.72,136.64,50.39,6.44
162,Saint George,20,GR,1559344592,68,39.45,22.34,64.4,5.01
163,Hamilton,40,CA,1559344927,52,43.26,-79.87,72.0,10.29
164,Okhotsk,100,RU,1559344962,87,59.36,143.24,43.01,8.12
165,Beisfjord,90,NO,1559344964,86,68.38,17.6,41.0,23.04
166,Poso,93,ID,1559344965,92,-1.4,120.75,66.23,4.41
167,Letlhakeng,5,BW,1559344967,28,-24.1,25.03,56.51,4.74
168,Carauari,99,BR,1559344968,96,-4.88,-66.9,75.59,2.01
169,Manavalakurichi,20,IN,1559344969,83,8.13,77.3,82.4,3.36
170,Freire,90,CL,1559344971,93,-38.95,-72.63,53.6,14.99
171,Karratha,0,AU,1559344972,16,-20.74,116.85,69.11,21.03
172,Kamaishi,40,JP,1559344584,77,39.28,141.86,64.4,4.7
173,Plettenberg Bay,20,ZA,1559344975,91,-34.05,23.37,55.97,2.17
174,Portland,1,US,1559344934,32,45.52,-122.67,84.0,10.29
175,Itarema,59,BR,1559344977,87,-2.92,-39.92,77.75,7.36
176,Iqaluit,20,CA,1559344979,43,63.75,-68.52,48.2,5.82
177,Half Moon Bay,90,US,1559344980,87,37.46,-122.43,81.0,6.93
178,Antofagasta,90,CL,1559344981,77,-23.65,-70.4,68.0,9.17
179,Piacabucu,20,BR,1559344925,83,-10.41,-36.43,78.29,6.89
180,Touros,20,BR,1559344610,88,-5.2,-35.46,77.0,3.36
181,Dalbandin,9,PK,1559344985,16,28.9,64.41,87.65,5.66
182,Esperance,20,TT,1559344986,62,10.24,-61.45,84.2,13.87
183,Ergani,75,TR,1559344988,77,38.27,39.76,75.2,6.93
184,Morrope,20,PE,1559344989,29,-6.54,-80.02,66.2,17.22
185,Nanortalik,17,GL,1559344954,83,60.14,-45.24,36.17,2.84
186,Del Rio,20,US,1559344809,52,29.36,-100.9,89.6,16.11
187,Saint-Philippe,1,CA,1559344575,41,45.36,-73.48,61.0,14.99
188,Isangel,75,VU,1559344994,73,-19.55,169.27,77.0,16.26
189,Rorvik,99,NO,1559344995,81,64.86,11.24,45.0,1.01
190,Lodja,100,CD,1559344996,96,-3.52,23.6,70.01,1.83
191,Lompoc,1,US,1559344899,72,34.64,-120.46,73.4,13.87
192,Nikolskoye,0,RU,1559344583,70,59.7,30.79,42.8,4.47
193,Morant Bay,40,JM,1559345000,74,17.88,-76.41,82.4,13.87
194,Kattivakkam,20,IN,1559345001,66,13.22,80.32,89.6,9.17
195,Ringas,20,IN,1559345003,24,27.37,75.57,93.2,5.82
196,Itamaraca,40,BR,1559345004,83,-7.75,-34.83,78.8,4.7
197,Arraial do Cabo,0,BR,1559344598,88,-22.97,-42.02,71.6,3.6
198,Kortkeros,0,RU,1559345006,87,61.81,51.56,42.8,4.47
199,Hofn,20,IS,1559344562,69,64.25,-15.21,37.4,13.87
200,Pangody,100,RU,1559345009,85,65.85,74.49,30.95,10.85
201,Manggar,96,ID,1559345010,89,-2.88,108.27,78.47,5.44
202,Waingapu,63,ID,1559345011,74,-9.65,120.26,77.03,16.8
203,Zunyi,10,CN,1559345013,76,27.73,106.92,66.05,4.21
204,Kampar,75,MY,1559345014,100,4.31,101.15,78.8,5.82
205,Monywa,45,MM,1559345015,55,22.12,95.13,88.55,11.74
206,Camacari,40,BR,1559344806,74,-12.7,-38.32,80.6,6.93
207,Wenling,100,CN,1559345017,92,28.38,121.38,73.0,2.08
208,Pevek,19,RU,1559344607,79,69.7,170.27,36.17,10.04
209,Estacion Coahuila,1,MX,1559345020,12,32.19,-115.0,93.2,16.11
210,Bethel,75,US,1559345022,54,60.79,-161.76,59.0,5.82
211,Kutum,25,SD,1559344982,13,14.2,24.66,80.63,6.13
212,Dunedin,86,NZ,1559345024,87,-45.87,170.5,44.01,14.0
213,Paamiut,64,GL,1559344578,94,61.99,-49.67,34.55,11.65
214,Adrar,0,DZ,1559345027,21,27.87,-0.29,84.2,16.11
215,Caucaia,20,BR,1559345028,74,-3.73,-38.66,86.0,9.17
216,Husavik,24,CA,1559345030,34,50.56,-96.99,62.01,4.0
217,Banda Aceh,100,ID,1559344569,77,5.56,95.32,83.69,10.25
218,Bahile,40,PH,1559345032,88,10.0,118.79,80.6,6.93
219,Horn,0,AT,1559345034,77,48.66,15.66,60.01,6.93
220,Auki,36,NG,1559345035,52,12.18,6.51,86.03,10.8
221,Alekseyevsk,65,RU,1559345036,43,57.84,108.35,54.17,3.91
222,Bilibino,85,RU,1559344600,84,68.06,166.44,46.43,3.69
223,Muros,0,ES,1559344874,49,42.77,-9.06,69.8,3.36
224,Champerico,90,MX,1559344798,88,16.38,-93.6,75.2,5.82
225,Souillac,0,FR,1559345041,68,45.6,-0.6,66.2,3.36
226,Alakurtti,82,RU,1559345042,95,66.96,30.34,37.99,5.01
227,Biak,95,ID,1559345044,96,-0.91,122.88,68.03,4.03
228,Qasigiannguit,0,GL,1559345045,65,68.82,-51.19,41.0,9.17
229,Zimapan,43,MX,1559344759,50,20.75,-99.35,77.39,8.93
230,Geraldton,90,CA,1559344844,57,49.72,-86.95,51.8,8.05
231,Provideniya,2,RU,1559344570,54,64.42,-173.23,50.39,0.85
232,Ankang,96,CN,1559345049,64,32.73,108.99,64.97,3.78
233,Port Lincoln,98,AU,1559345051,78,-34.72,135.86,59.39,11.01
234,Xuddur,84,SO,1559345052,81,4.12,43.89,73.79,16.53
235,Asheville,1,US,1559345053,46,35.6,-82.55,78.8,27.51
236,Kamina,11,CD,1559345055,58,-8.74,25.0,65.15,3.91
237,Mgandu,26,TZ,1559345056,78,-5.96,34.11,61.19,5.46
238,Chuy,51,UY,1559344564,64,-33.69,-53.46,59.93,7.36
239,Mehamn,45,NO,1559344597,78,71.03,27.85,41.57,4.83
240,Constitucion,40,MX,1559345060,10,23.99,-104.67,88.0,14.0
241,Mount Isa,0,AU,1559345061,32,-20.73,139.49,53.6,14.99
242,College,90,US,1559344605,45,64.86,-147.8,64.4,9.17
243,Padang,40,ID,1559345064,94,-0.92,100.36,77.0,3.36
244,Atherton,75,GB,1559345065,82,53.52,-2.49,60.01,5.82
245,Isla Mujeres,75,MX,1559345066,79,21.23,-86.73,84.2,14.99
246,Trairi,58,BR,1559345068,96,-3.28,-39.27,73.43,3.69
247,Bereznik,87,RU,1559345069,85,62.86,42.71,50.57,5.64
248,Dingle,98,PH,1559344605,60,11.0,122.67,87.11,9.13
249,Boleslawiec,15,PL,1559345071,91,51.26,15.57,57.99,4.16
250,Tilichiki,16,RU,1559345073,50,60.47,166.1,57.05,9.89
251,Guaruja,0,BR,1559345050,57,-23.99,-46.26,77.0,12.75
252,Gizo,75,IL,1559345075,88,31.8,34.94,75.2,4.7
253,Totolapan,75,MX,1559345077,42,18.99,-98.92,84.2,5.82
254,Harsin,0,IR,1559345078,36,34.27,47.59,60.8,5.84
255,Saint Anthony,75,US,1559345079,48,43.97,-111.68,66.2,5.82
256,Maldonado,75,UY,1559345041,81,-34.91,-54.96,51.8,3.36
257,Pampierstad,99,ZA,1559345082,46,-27.78,24.69,57.05,7.0
258,Anadyr,0,RU,1559345083,47,64.73,177.51,44.6,11.18
259,Namibe,14,AO,1559345085,81,-15.19,12.15,67.13,12.95
260,Eenhana,32,NA,1559345086,28,-17.48,16.34,69.8,1.12
261,Dawson,1,US,1559345087,57,39.85,-89.46,79.0,5.82
262,Puerto Palomas,20,US,1559345089,14,31.78,-107.63,87.8,8.05
263,Ust-Nera,5,RU,1559345090,43,64.57,143.24,55.97,1.23
264,Tasiilaq,21,GL,1559344560,69,65.61,-37.64,33.8,9.17
265,Fremont,1,US,1559345092,60,37.55,-121.99,84.0,9.17
266,Caoayan,73,PH,1559345094,72,16.08,120.05,85.31,6.76
267,Punta Gorda,1,US,1559345095,66,26.93,-82.05,88.0,13.87
268,Pierre,1,US,1559345096,39,44.37,-100.35,80.6,5.82
269,Kupang,40,ID,1559345098,73,-10.16,123.6,77.0,19.46
270,Keffi,20,NG,1559345099,74,8.85,7.88,78.8,3.36
271,Komsomolskiy,99,RU,1559345100,97,67.55,63.78,28.07,5.73
272,Berlevag,33,NO,1559344997,83,70.86,29.09,41.93,3.8
273,Pangnirtung,75,CA,1559345103,52,66.15,-65.72,46.4,11.41
274,Nago,0,IT,1559345104,77,45.88,10.89,66.2,5.82
275,Lusambo,100,CD,1559345106,85,-4.97,23.44,71.09,2.75
276,Mareeba,40,AU,1559345107,83,-16.99,145.42,72.0,12.75
277,Kiruna,85,SE,1559345108,69,67.86,20.23,39.2,8.05
278,Ayagoz,0,KZ,1559345110,54,47.96,80.43,55.79,1.99
279,Barra,0,BR,1559345048,55,-11.09,-43.14,75.41,2.08
280,Ostrovnoy,50,RU,1559345113,76,68.05,39.51,43.37,16.78
281,Comodoro Rivadavia,75,AR,1559345114,93,-45.87,-67.48,44.6,5.1
282,Angoche,39,MZ,1559345115,83,-16.23,39.91,70.19,5.97
283,Marystown,82,CA,1559345117,85,47.17,-55.16,38.87,6.42
284,Yulara,0,AU,1559344594,60,-25.24,130.99,41.0,9.17
285,Huanren,17,CN,1559345119,50,41.26,125.37,61.73,3.98
286,Bud,69,NO,1559345120,93,62.91,6.91,44.6,6.93
287,Finspang,0,SE,1559345106,61,58.71,15.77,48.2,6.93
288,Talnakh,90,RU,1559344576,89,69.49,88.39,32.0,4.47
289,Bathsheba,40,BB,1559345107,78,13.22,-59.52,80.6,14.99
290,Luzino,75,RU,1559345125,93,54.95,73.03,57.2,4.47
291,Marzuq,97,YE,1559345126,41,14.4,46.47,79.55,1.97
292,Aldan,10,RU,1559345128,68,58.61,125.39,50.03,5.7
293,Okoneshnikovo,97,RU,1559345129,87,54.84,75.08,53.09,6.26
294,Sainte-Marie,20,CA,1559345130,50,46.45,-71.03,57.0,12.75
295,Broome,49,GB,1559344559,82,52.47,1.45,61.0,9.17
296,Victoria,75,BN,1559344601,94,5.28,115.24,78.8,10.71
297,El Dorado,100,VE,1559345134,96,6.71,-61.64,71.99,3.98
298,Hasaki,75,JP,1559345136,72,35.73,140.83,72.0,6.93
299,Tatarsk,95,RU,1559345137,82,55.22,75.96,50.39,6.93
300,Taoudenni,0,ML,1559345138,9,22.68,-3.98,97.73,14.63
301,Ovsyanka,100,RU,1559345140,38,53.58,126.91,62.99,3.36
302,Pyaozerskiy,93,RU,1559345141,74,65.83,31.17,40.67,21.12
303,Diego de Almagro,32,CL,1559345143,76,-26.39,-70.05,56.51,1.7
304,Faya,40,SA,1559344614,33,18.39,42.45,77.0,10.29
305,Boa Vista,75,BR,1559345145,83,2.82,-60.67,80.6,4.7
306,Sao Francisco do Sul,75,BR,1559345147,100,-26.24,-48.64,66.99,2.24
307,Vondrozo,66,MG,1559345148,93,-22.82,47.32,55.97,3.2
308,Farafangana,40,MG,1559345149,91,-22.82,47.83,61.01,3.04
309,Fortuna,0,ES,1559344565,68,38.18,-1.13,66.99,2.77
310,West Bay,34,GB,1559345152,87,50.71,-2.76,55.0,5.82
311,Mangrol,0,IN,1559345153,20,25.33,76.51,96.83,3.67
312,Tazovskiy,99,RU,1559344598,94,67.47,78.7,32.39,13.6
313,Beringovskiy,49,RU,1559345156,47,63.05,179.32,50.75,4.03
314,Lambarene,99,GA,1559345157,97,-0.7,10.22,72.89,2.82
315,Mazagao,75,BR,1559345159,100,-0.12,-51.29,77.0,4.7
316,Suez,0,EG,1559345160,55,29.97,32.54,75.41,8.34
317,Goderich,44,CA,1559345161,65,43.74,-81.71,66.0,1.99
318,Katete,98,UG,1559345163,94,-0.78,29.75,62.45,2.21
319,Ranong,89,TH,1559345164,78,9.96,98.62,81.53,4.27
320,Abu Samrah,100,SY,1559344590,29,35.3,37.18,82.43,6.38
321,Cabo San Lucas,5,MX,1559345087,56,22.89,-109.91,86.0,17.22
322,San Andres,100,PH,1559345168,75,13.32,122.68,84.95,4.21
323,Vanino,64,RU,1559345169,95,53.93,40.55,61.91,5.86
324,Kushima,75,JP,1559345170,82,31.5,131.29,68.0,3.36
325,Moussoro,46,TD,1559345172,40,13.64,16.49,91.07,6.26
326,Norman Wells,90,CA,1559344611,71,65.28,-126.83,53.6,16.11
327,Pacific Grove,40,US,1559345174,72,36.62,-121.92,82.99,11.41
328,Sao Miguel do Araguaia,96,BR,1559344897,47,-13.28,-50.16,80.81,2.44
329,Pochutla,90,MX,1559344610,88,15.74,-96.47,82.4,2.68
330,Kirkwall,100,GB,1559345178,93,58.98,-2.96,51.8,18.34
331,Port Hedland,0,AU,1559345179,26,-20.31,118.58,60.8,13.87
332,Coari,97,BR,1559345180,94,-4.09,-63.14,75.77,1.41
333,Gouyave,20,GD,1559345182,83,12.16,-61.73,82.4,17.22
334,Raudeberg,100,NO,1559345183,81,61.99,5.14,46.4,10.29
335,Maxixe,0,MZ,1559345184,95,-23.86,35.35,60.65,4.27
336,Tateyama,20,JP,1559345186,64,36.66,137.31,77.0,2.24
337,Storforshei,99,NO,1559345187,95,66.4,14.52,34.0,3.0
338,Salalah,75,OM,1559344610,83,17.01,54.1,84.2,3.36
339,Santa Vitoria,27,BR,1559345190,83,-7.82,-67.03,78.29,2.93
340,Meridian,20,US,1559345191,46,32.36,-88.7,89.6,8.05
341,Vila Velha,20,BR,1559345192,74,-3.71,-38.6,86.0,9.17
342,Kiunga,100,PG,1559345194,88,-6.12,141.3,78.83,2.48
343,Malkara,2,TR,1559345195,95,40.89,26.9,62.99,7.58
344,Tiksi,83,RU,1559345196,95,71.64,128.87,32.93,4.12
345,Evensk,78,RU,1559345197,36,61.92,159.24,64.79,8.05
346,Aksaray,20,TR,1559345198,93,38.37,34.03,59.0,2.71
347,Casper,1,US,1559345014,35,42.87,-106.31,71.01,14.99
348,Atar,0,MR,1559344950,10,20.52,-13.05,93.77,7.4
349,Bubaque,59,GW,1559345202,82,11.28,-15.83,78.65,15.52
350,Clyde River,20,CA,1559345203,87,70.47,-68.59,39.2,1.3
351,Zaozerne,45,UA,1559345205,68,51.37,23.94,54.53,4.03
352,Rio Cuarto,75,AR,1559345206,93,-33.13,-64.35,50.0,9.17
353,Nome,1,US,1559345207,88,30.04,-94.42,79.0,9.17
354,Ulaangom,28,MN,1559345209,40,49.98,92.07,51.83,3.33
355,Miri,78,NG,1559345210,51,10.31,9.75,82.61,3.8
356,Igarka,99,RU,1559345211,95,67.47,86.57,34.37,11.18
357,Mana,75,RS,1559345213,100,43.52,20.24,55.4,2.24
358,Faanui,85,PF,1559345214,69,-16.48,-151.75,82.79,8.37
359,Shiraz,0,IR,1559345215,21,29.61,52.54,71.6,9.17
360,Marevo,75,BA,1559345217,100,43.57,18.7,51.8,2.24
361,Kimbe,64,PG,1559345218,60,-5.56,150.15,86.75,5.06
362,Semporna,75,MY,1559345219,94,4.48,118.61,77.0,3.36
363,Sudzha,100,RU,1559345221,91,51.19,35.27,63.89,3.42
364,Hobyo,98,SO,1559345222,70,5.35,48.53,81.35,20.83
365,Rome,0,IT,1559345223,93,41.89,12.48,60.01,2.24
366,Samarinda,99,ID,1559345225,93,-0.5,117.14,77.39,1.32
367,Altamira,74,BR,1559345021,98,-3.2,-52.21,74.69,3.8
368,Faranah,99,GN,1559345227,85,10.04,-10.74,75.59,11.99
369,Aloleng,86,PH,1559345229,74,16.13,119.78,86.75,10.67
370,Ixtapa,75,MX,1559345230,74,20.71,-105.21,80.6,11.41
371,Prado,0,BR,1559345231,93,-17.34,-39.22,71.81,5.01
372,Saint-Pierre,0,FR,1559345233,77,48.95,4.24,60.8,4.7
373,Benghazi,87,LY,1559345234,60,32.12,20.07,73.07,14.34
374,Noumea,75,NC,1559345236,69,-22.28,166.46,73.4,2.24
375,Jesus Carranza,20,MX,1559345237,27,31.49,-106.24,91.4,7.18
376,Sao Domingos,2,BR,1559345238,56,-13.4,-46.32,75.23,2.24
377,Cherskiy,94,RU,1559344988,33,68.75,161.3,61.19,5.19
378,Panzhihua,24,CN,1559345241,73,26.59,101.72,67.49,2.66
379,Milkovo,2,BG,1559345242,93,41.53,24.68,57.2,4.7
380,Carastelec,100,RO,1559345243,100,47.3,22.7,61.0,5.82
381,Eureka,90,US,1559345051,87,40.8,-124.16,59.0,10.29
382,Coquimbo,75,CL,1559345246,87,-29.95,-71.34,57.99,8.05
383,Tessalit,0,ML,1559345247,10,20.2,1.01,90.17,9.33
384,La Ronge,20,CA,1559345249,33,55.1,-105.3,62.6,12.75
385,Kysyl-Syr,40,RU,1559345250,53,63.9,122.77,61.01,6.55
386,Tarauaca,72,BR,1559345251,73,-8.16,-70.77,78.29,1.5
387,Basco,1,US,1559345252,61,40.33,-91.2,81.0,5.82
388,Mabaruma,56,GY,1559345254,84,8.2,-59.78,76.13,4.25
389,Srednekolymsk,100,RU,1559345255,75,67.46,153.71,49.13,12.12
390,Novyy Urgal,11,RU,1559345256,48,51.07,132.56,61.19,2.13
391,Airai,99,TL,1559345258,61,-8.93,125.41,79.55,10.92
392,Brownwood,1,US,1559345259,58,31.71,-98.99,88.0,7.52
393,Murakeresztur,0,HU,1559345260,87,46.36,16.88,57.2,4.7
394,Belyy Yar,0,RU,1559345262,62,53.6,91.39,51.8,11.18
395,Songjianghe,33,CN,1559345263,59,42.18,127.48,60.29,6.42
396,Noboribetsu,40,JP,1559345264,67,42.42,141.1,66.99,16.11
397,Nova Soure,3,BR,1559345266,93,-11.24,-38.48,69.47,7.11
398,Mackay,90,CA,1559345267,49,53.65,-115.58,68.0,11.41
399,Pilar,0,AR,1559345268,82,-34.46,-58.91,57.2,3.36
400,Katakwi,88,UG,1559345269,93,1.91,33.96,65.87,3.22
401,Bulungu,98,CD,1559345271,91,-4.54,18.6,73.25,3.27
402,Saint-Augustin,0,FR,1559345272,82,44.83,-0.61,63.0,4.34
403,Sisimiut,0,GL,1559345216,67,66.94,-53.67,39.95,14.61
404,Hay River,75,CA,1559345275,56,60.82,-115.79,42.8,14.99
405,Nishihara,75,JP,1559345276,77,35.74,139.53,75.0,4.7
406,Bonavista,85,CA,1559345270,86,48.65,-53.11,35.01,5.99
407,Muscat,0,OM,1559345033,29,23.6,58.55,89.6,1.12
408,Boditi,98,ET,1559345279,78,6.95,37.86,66.59,1.01
409,Mahon,75,IE,1559345281,100,51.89,-8.4,48.2,5.82
410,Smolyaninovo,44,RU,1559345282,93,43.29,132.46,53.6,4.47
411,Boo,100,NG,1559345283,89,7.44,8.9,76.13,7.87
412,Bluefield,75,US,1559345284,87,37.27,-81.22,68.0,6.93
413,Dongobesh,21,TZ,1559345286,78,-4.07,35.37,63.35,3.94
414,Valparaiso,1,US,1559345287,57,41.47,-87.06,82.4,9.17
415,Shenjiamen,100,CN,1559345289,78,29.96,122.3,66.23,4.27
416,Shahpur,26,IN,1559345290,19,22.19,77.91,95.03,6.87
417,Blovice,90,CZ,1559345291,100,49.58,13.54,57.99,1.12
418,Lata,17,IN,1559345293,62,30.78,78.62,35.45,10.8
419,Aksha,0,RU,1559345294,57,50.28,113.29,57.23,5.01
420,Panama City,1,US,1559345252,66,30.16,-85.65,87.8,11.41
421,Tocopilla,20,CL,1559345297,88,-22.09,-70.2,64.79,19.46
422,Masuda,0,JP,1559345298,72,34.68,131.85,66.99,8.05
423,Pitimbu,40,BR,1559345299,88,-7.47,-34.81,77.0,3.36
424,Vestmannaeyjar,74,IS,1559345301,70,63.44,-20.27,44.81,18.79
425,Lerwick,100,GB,1559345302,100,60.15,-1.15,48.2,8.05
426,Mecca,82,SA,1559345303,23,21.43,39.83,96.83,6.35
427,Meulaboh,100,ID,1559345305,82,4.14,96.13,80.99,6.04
428,Sola,75,NO,1559345306,93,58.89,5.65,48.2,10.29
429,Rudnya,55,RU,1559345308,57,50.8,44.56,71.63,0.94
430,Beidao,100,CN,1559345309,55,34.57,105.89,57.95,1.83
431,Oksfjord,75,NO,1559345310,93,70.24,22.35,41.0,9.17
432,Aljezur,0,PT,1559345311,79,37.31,-8.8,71.01,6.6
433,Khandyga,70,RU,1559345313,37,62.65,135.58,61.73,6.71
434,Olustvere,0,EE,1559345314,90,58.56,25.56,45.0,3.85
435,Saint-Louis,0,CH,1559345316,93,47.59,7.56,60.01,3.36
436,Tutoia,100,BR,1559345317,96,-2.76,-42.27,75.41,3.22
437,Tsiroanomandidy,47,MG,1559345319,96,-18.77,46.05,56.87,2.15
438,Lesnoy,0,RU,1559345320,72,59.78,52.13,47.69,3.44
439,Katsuura,75,JP,1559345321,68,33.93,134.5,69.8,8.05
440,Labuhan,67,ID,1559345322,85,-2.54,115.51,78.83,1.07
441,The Pas,40,CA,1559345324,31,53.82,-101.24,60.8,12.75
442,Palmeira das Missoes,84,BR,1559345140,96,-27.9,-53.31,57.59,9.15
443,Hami,16,CN,1559345326,18,42.84,93.51,73.25,16.04
444,Arlit,46,NE,1559345327,27,18.74,7.39,94.31,14.92
445,Nichinan,75,JP,1559345329,82,31.65,131.31,68.0,3.36
446,Bosaso,100,SO,1559345330,64,11.28,49.18,84.59,6.35
447,Vao,0,EE,1559345331,72,59.1,26.19,43.19,7.49
448,Pop,40,UZ,1559345333,53,40.87,71.1,71.6,4.7
449,Puerto del Rosario,90,ES,1559345334,77,28.5,-13.86,69.8,10.29
450,Kuloy,53,RU,1559345336,87,61.03,42.49,49.49,4.52
451,La Llanada,75,CO,1559345337,93,1.47,-77.58,62.6,2.53
452,Vyazma,41,RU,1559345338,82,55.21,34.3,51.29,4.79
453,Dole,0,FR,1559345340,87,47.09,5.49,60.01,4.7
454,El Alto,0,BO,1559345341,19,-16.5,-68.19,50.0,6.93
455,Pedasi,98,PA,1559345343,85,7.53,-80.03,77.93,0.2
456,Coihaique,75,CL,1559345263,100,-45.58,-72.07,35.6,1.88
457,Antipovka,2,RU,1559345345,59,49.83,45.31,68.57,2.91
458,Chita,0,RU,1559345346,66,52.03,113.5,48.2,15.66
459,Nouadhibou,0,MR,1559345348,88,20.93,-17.03,64.4,14.99
460,Victoria,75,BN,1559345078,94,5.28,115.24,78.8,10.71
461,Araouane,0,ML,1559345350,9,18.9,-3.53,96.83,8.21
462,Shubarshi,96,KZ,1559345351,61,48.59,57.19,73.43,9.42
463,Ustrzyki Dolne,89,UA,1559345353,81,49.43,22.59,54.0,1.34
464,Laguna,5,MX,1559345354,40,27.52,-110.01,87.8,4.7
465,Kavaratti,100,IN,1559345356,70,10.57,72.64,85.49,8.5
466,Osmena,70,PH,1559345357,77,12.17,124.59,84.95,8.9
467,Ambon,0,FR,1559345358,93,47.55,-2.56,59.0,3.36
468,Cap Malheureux,75,MU,1559345099,94,-19.98,57.61,73.4,6.8
469,Campbell River,75,CA,1559345360,34,50.02,-125.24,80.01,4.7
470,Zhanaozen,0,KZ,1559345362,38,43.35,52.85,75.77,9.95
471,Hambantota,100,LK,1559345310,82,6.12,81.12,82.79,16.69
472,Roros,49,NO,1559345364,100,62.57,11.38,28.4,1.12
473,Dingli,40,MT,1559345365,88,35.86,14.38,62.6,8.05
474,Jinxi,97,CN,1559345367,90,27.92,116.75,70.55,2.15
475,Kashan,25,IR,1559345368,40,33.99,51.44,68.0,1.12
476,Beyneu,95,KZ,1559345369,33,45.32,55.19,81.35,11.01
477,Mbeya,48,TZ,1559345371,91,-8.91,33.47,56.51,6.2
478,Lyaskelya,2,RU,1559345372,71,61.77,31.02,39.41,8.12
479,Tual,100,ID,1559345374,81,-5.67,132.75,82.25,20.85
480,Narsaq,0,GL,1559345375,66,60.91,-46.05,44.6,17.22
481,Paranhos,95,PY,1559345376,95,-23.89,-55.43,66.59,2.35
482,Abnub,0,EG,1559345377,48,27.27,31.15,84.2,20.8
483,Yetkul,0,RU,1559345379,87,54.83,61.59,57.2,6.71
484,Longyearbyen,0,NO,1559345380,69,78.22,15.63,33.8,21.92
485,Avera,75,US,1559345382,38,33.19,-82.53,93.2,6.93
486,Mims,1,US,1559345383,45,34.23,-90.13,87.8,4.7
487,Slavsk,93,RU,1559345384,97,55.05,21.68,51.29,4.07
488,Itoman,40,JP,1559345385,94,26.12,127.67,80.6,6.93
489,Nalut,44,LY,1559345387,72,31.86,10.98,60.11,19.73
490,Ampanihy,0,MG,1559345388,93,-24.69,44.75,63.71,5.3
491,Sambava,62,MG,1559345389,98,-14.27,50.17,68.03,1.63
492,Haines Junction,69,CA,1559345391,42,60.75,-137.51,53.27,16.26
493,Wagar,56,US,1559345392,48,31.44,-87.99,93.99,5.44
494,Cortez,20,US,1559345394,20,37.35,-108.58,77.0,8.05
495,Molo,99,KE,1559345395,97,-0.25,35.73,54.53,0.92
496,Porto-Vecchio,0,FR,1559345396,93,41.59,9.28,59.0,2.24
497,San Jose,28,PH,1559345348,55,15.79,120.99,87.83,5.99
498,Semnan,40,IR,1559345399,51,35.58,53.39,62.6,5.64
499,Waipawa,2,NZ,1559345401,80,-39.94,176.59,48.0,13.0
500,Kisangani,84,CD,1559345402,97,0.52,25.21,70.01,2.15
501,Guerrero Negro,16,MX,1559345403,80,27.97,-114.04,64.79,13.58
502,Kontagora,89,NG,1559345404,75,10.4,5.47,79.91,9.08
503,Havre-Saint-Pierre,75,CA,1559345201,57,50.23,-63.6,48.2,18.34
504,San Rafael,35,AR,1559345170,38,-34.61,-68.33,49.67,5.17
505,Pisco,90,PE,1559345409,30,-13.71,-76.2,71.6,8.05
506,Beyla,100,GN,1559345410,97,8.69,-8.65,70.19,4.56
507,Denpasar,75,ID,1559345291,78,-8.65,115.22,78.8,14.99
508,Hokitika,97,NZ,1559345413,48,-42.72,170.96,53.09,7.36
509,Huarmey,100,PE,1559345381,89,-10.07,-78.15,63.53,17.58
510,Sakaiminato,75,JP,1559345415,59,35.55,133.23,66.2,4.7
511,Longkou,100,CN,1559345416,63,37.64,120.47,67.85,12.06
512,Novikovo,10,UA,1559345418,85,45.05,34.56,64.07,3.11
513,Sur,0,OM,1559345419,31,22.57,59.53,95.57,13.6
514,Aquiraz,20,BR,1559345420,74,-3.9,-38.39,86.0,9.17
515,Eyl,100,SO,1559345422,74,7.98,49.82,78.65,14.92
516,Sol-Iletsk,0,RU,1559345423,86,51.16,55.0,64.25,4.41
517,Leh,32,IN,1559345424,41,34.16,77.58,28.61,3.76
518,Simplicio Mendes,14,BR,1559345426,64,-7.85,-41.91,75.59,4.45
519,Anori,100,BR,1559345427,94,-3.74,-61.66,76.49,2.3
520,Yumen,60,CN,1559345428,11,40.29,97.04,70.91,4.68
521,Santa Ines,75,EC,1559345430,76,-0.82,-78.63,55.4,11.41
522,Garowe,98,SO,1559345431,83,8.41,48.48,74.51,9.86
523,Takoradi,91,GH,1559345432,93,4.89,-1.75,75.23,5.28
524,Starogard Gdanski,0,PL,1559345433,93,53.96,18.53,55.0,6.93
525,Peniche,0,PT,1559345435,82,39.36,-9.38,79.0,2.24
526,Cidreira,95,BR,1559345436,78,-30.17,-50.22,62.09,9.35
527,Aswan,0,EG,1559345437,9,24.09,32.9,93.95,9.26
528,Mount Pleasant,1,US,1559345394,42,33.16,-94.97,87.8,0.47
529,Gibsons,20,CA,1559345440,38,49.4,-123.51,80.01,4.7
530,High Rock,75,BS,1559345442,74,26.63,-78.28,82.4,9.17
531,Nelson Bay,40,AU,1559345443,71,-32.72,152.14,55.99,13.87
532,Toktogul,61,KG,1559345444,63,41.87,72.95,49.13,1.05
533,Mezhdurechensk,99,RU,1559345445,96,53.69,88.07,47.87,4.32
534,Amot,100,NO,1559345447,87,59.57,7.99,36.17,6.42
535,La Rioja,97,AR,1559345448,91,-29.41,-66.86,42.65,6.73
536,Viedma,45,AR,1559345449,75,-40.81,-62.99,50.03,17.2
537,Buala,42,SB,1559345451,77,-8.15,159.59,83.69,14.94
538,Kokoda,98,PG,1559345452,70,-8.88,147.74,68.93,5.01
539,Vung Tau,74,VN,1559345453,78,10.35,107.08,83.87,6.6
540,Dzaoudzi,0,YT,1559345454,78,-12.79,45.27,78.8,14.99
541,El Tarra,99,CO,1559345456,96,8.57,-73.09,68.03,3.02
542,Te Anau,94,NZ,1559345457,84,-45.41,167.72,35.63,3.87
543,Khorixas,0,NA,1559345458,39,-20.37,14.96,67.85,1.97
544,Indi,80,IN,1559345459,60,17.17,75.96,81.17,16.8
545,San Borja,44,BO,1559345461,92,-14.86,-66.75,74.69,3.2
546,Mokhsogollokh,74,RU,1559345462,52,61.4,128.95,53.27,8.72
547,Tangshan,100,CN,1559345463,18,39.63,118.17,76.13,7.38
548,Cayenne,0,GF,1559345404,88,4.94,-52.33,78.8,1.12
549,Yabelo,100,ET,1559345466,89,4.89,38.09,62.63,4.27
550,Sarankhola,65,BD,1559345467,74,22.31,89.79,85.49,9.37
551,Nikolayevka,0,RU,1559345468,62,47.31,38.84,68.39,7.09
552,Ouahigouya,67,BF,1559345470,28,13.58,-2.42,98.45,9.53
553,Sorong,97,ID,1559345471,88,-0.86,131.25,80.99,2.1
554,Aasiaat,69,GL,1559345472,71,68.71,-52.87,37.43,9.33
555,Samarai,100,PG,1559345473,95,-10.62,150.67,75.59,7.0
556,Chabahar,0,IR,1559345475,39,25.29,60.65,90.71,6.53
557,Ahipara,61,NZ,1559345476,100,-35.17,173.16,57.0,30.91
558,Chapais,90,CA,1559345477,45,49.78,-74.86,46.4,6.93
559,Kieta,31,PG,1559345478,69,-6.22,155.63,85.31,10.29
560,Bekhtery,0,UA,1559345480,75,46.25,32.3,65.15,4.63
561,Cockburn Town,0,TC,1559345481,81,21.46,-71.14,81.17,18.14
562,Sirari,52,KE,1559345482,93,-1.25,34.48,62.99,3.91
563,Makat,72,KZ,1559345483,46,47.65,53.35,80.63,9.84
564,Puerto Madero,0,AR,1559345485,82,-34.61,-58.36,57.2,8.05
565,Oktyabrskiy,0,RU,1559345486,88,55.61,37.97,63.0,2.24
566,Bitung,20,ID,1559345487,70,1.44,125.19,86.0,4.7
567,Kotaparh,68,IN,1559345489,63,19.15,82.35,83.69,6.64
568,Tura,12,IN,1559345490,87,25.52,90.21,75.41,5.55
569,Mujiayingzi,97,CN,1559345491,37,42.12,118.78,62.09,8.95
