,City,Cloudiness,Country,Date,Humidity,Lat,Lng,Max Temp,Wind Speed
0,Fare,2,PF,1563026359,81,-16.7,-151.02,76.6,4.79
1,Aden,68,YE,1563026194,45,12.79,45.03,95.68,7.2
2,Manta,100,RO,1563026361,64,45.1,24.1,69.76,5.19
3,Busselton,0,AU,1563026362,61,-33.64,115.35,46.99,16.6
4,Punta Arenas,90,CL,1563026364,100,-53.16,-70.91,39.2,14.99
5,Saint-Augustin,90,CA,1563026365,93,45.63,-73.98,73.99,6.93
6,Longyearbyen,75,NO,1563026366,80,78.22,15.63,41.0,8.05
7,Cape Town,0,ZA,1563026221,52,-33.93,18.42,66.2,3.36
8,Hilo,40,US,1563026369,68,19.71,-155.08,69.8,5.82
9,Dunedin,100,NZ,1563026370,68,-45.87,170.5,52.0,5.01
10,Maragogi,21,BR,1563026371,74,-9.01,-35.22,79.48,8.48
11,Shingu,100,JP,1563026372,99,33.72,135.99,67.24,7.47
12,Catarman,100,PH,1563026373,85,12.5,124.64,76.6,3.96
13,Elk River,40,US,1563026374,73,45.3,-93.57,75.99,2.98
14,Provideniya,35,RU,1563026376,67,64.42,-173.23,57.88,3.15
15,Esplanada,0,BR,1563026377,22,-15.81,-43.31,85.96,5.14
16,Port Alfred,0,ZA,1563026378,83,-33.59,26.89,64.0,1.99
17,Kargat,0,RU,1563026379,70,55.19,80.28,64.54,8.75
18,Albany,75,US,1563026380,73,42.65,-73.75,75.99,4.7
19,Saldanha,34,PT,1563026381,36,41.42,-6.55,83.8,20.11
20,Cherskiy,18,RU,1563026382,89,68.75,161.3,43.12,16.13
21,Port Elizabeth,1,US,1563026384,69,39.31,-74.98,82.0,5.82
22,Coahuayana,83,MX,1563026385,90,18.62,-100.35,74.26,0.83
23,Tilichiki,0,RU,1563026386,95,60.47,166.1,44.92,3.27
24,Tivaouane,0,SN,1563026387,62,14.95,-16.81,84.2,9.17
25,Qafqafa,20,JO,1563026388,33,32.35,35.94,87.8,14.99
26,Praia da Vitoria,20,PT,1563026390,61,38.73,-27.07,82.4,12.84
27,Bredasdorp,10,ZA,1563026391,60,-34.53,20.04,68.0,8.05
28,Bluff,96,AU,1563026392,64,-23.58,149.07,55.72,8.7
29,Hermanus,0,ZA,1563026393,69,-34.42,19.24,66.99,5.01
30,Ushuaia,75,AR,1563026394,86,-54.81,-68.31,41.0,3.36
31,Wiarton,90,CA,1563026395,72,44.74,-81.13,73.0,8.05
32,Rikitea,27,PF,1563026397,84,-23.12,-134.97,74.44,13.73
33,Mar del Plata,100,AR,1563026398,63,-46.43,-67.52,45.82,10.09
34,Vardo,1,US,1563026399,61,39.62,-77.74,80.01,6.93
35,Svetlogorsk,40,RU,1563026400,55,53.14,59.15,86.0,6.71
36,Puerto del Rosario,0,ES,1563026104,69,28.5,-13.86,80.6,17.22
37,Goderich,64,CA,1563026402,66,43.74,-81.71,78.01,14.0
38,Mataura,100,NZ,1563026404,96,-46.19,168.86,46.0,1.99
39,Pozarevac,20,RS,1563026405,41,44.62,21.19,80.01,6.93
40,Mazatlan,75,MX,1563026406,83,23.22,-106.42,82.0,3.36
41,Tuktoyaktuk,61,CA,1563026407,79,69.44,-133.03,41.32,4.63
42,Vaini,75,IN,1563026408,83,15.34,74.49,75.2,11.41
43,Chavakkad,75,IN,1563026410,79,10.53,76.05,86.0,5.82
44,Rio Gallegos,90,AR,1563026411,87,-51.62,-69.22,42.8,12.75
45,Padang,1,ID,1563026412,78,-0.92,100.36,83.44,11.45
46,Sitka,0,US,1563026413,80,37.17,-99.65,72.0,1.01
47,Chokurdakh,67,RU,1563026414,65,70.62,147.9,47.08,5.01
48,Port Hedland,0,AU,1563026415,27,-20.31,118.58,62.6,9.17
49,Hobart,20,AU,1563026137,95,-42.88,147.33,42.8,11.41
50,Luzhou,100,CN,1563026418,82,28.89,105.45,74.44,3.65
51,Puerto Ayora,20,EC,1563026399,83,-0.74,-90.35,70.0,2.24
52,Vanino,68,RU,1563026420,69,53.93,40.55,65.8,7.02
53,Clyde River,20,CA,1563026421,66,70.47,-68.59,53.6,3.36
54,Ponta do Sol,0,BR,1563026422,38,-20.63,-46.0,78.4,1.3
55,Codrington,18,AU,1563026423,43,-28.95,153.24,55.4,14.99
56,Havre-Saint-Pierre,90,CA,1563026425,100,50.23,-63.6,53.6,11.41
57,Kodiak,1,US,1563026426,83,39.95,-94.76,79.0,4.7
58,Atuona,8,PF,1563026427,79,-9.8,-139.03,79.3,12.28
59,Maningrida,24,AU,1563026428,58,-12.05,134.23,64.9,9.4
60,Souillac,0,FR,1563026429,37,45.6,-0.6,84.99,8.05
61,Kamenka,89,MD,1563026430,52,48.03,28.7,73.0,4.0
62,Barrow,0,AR,1563026432,49,-38.31,-60.23,52.12,4.56
63,Sabang,100,PH,1563026433,95,13.8,121.11,73.9,1.21
64,Tigil,0,RU,1563026434,79,57.8,158.67,49.78,4.21
65,Sao Filipe,60,CV,1563026435,82,14.9,-24.5,73.54,19.84
66,Coihaique,75,CL,1563026436,100,-45.58,-72.07,33.8,2.24
67,Butaritari,83,KI,1563026437,70,3.07,172.79,83.44,11.97
68,Oistins,40,BB,1563026202,79,13.07,-59.53,84.2,13.87
69,Saint George,20,GR,1563026402,48,39.45,22.34,87.8,13.87
70,Kopavogur,75,IS,1563026441,87,64.11,-21.91,60.01,10.29
71,Los Llanos de Aridane,20,ES,1563026442,69,28.66,-17.92,77.0,14.99
72,Nanzhou,2,CN,1563026443,89,29.37,112.41,70.48,5.86
73,Huarmey,100,PE,1563026444,85,-10.07,-78.15,62.74,11.32
74,Ilulissat,20,GL,1563026445,66,69.22,-51.1,48.2,5.82
75,Sobolevo,84,RU,1563026446,65,54.43,31.9,61.48,2.8
76,Hovd,75,NO,1563026448,67,63.83,10.7,59.0,8.05
77,Bria,42,CF,1563026449,82,6.54,21.99,79.12,1.72
78,Mogadishu,75,SO,1563026422,66,2.04,45.34,84.2,20.8
79,Chuy,93,UY,1563026294,79,-33.69,-53.46,55.36,10.42
80,Plettenberg Bay,0,ZA,1563026452,72,-34.05,23.37,58.6,1.68
81,Rabo de Peixe,20,PT,1563026453,83,37.8,-25.58,71.6,12.75
82,Necochea,29,AR,1563026454,89,-38.55,-58.74,48.99,1.99
83,Port Hardy,90,CA,1563026303,93,50.7,-127.42,57.2,1.59
84,Burlatskoye,70,RU,1563026457,41,45.06,43.63,75.88,3.36
85,Xapuri,75,BR,1563026458,83,-10.65,-68.5,77.0,2.46
86,San Cristobal,100,HN,1563026459,54,14.68,-86.92,76.78,7.43
87,Kralendijk,40,BQ,1563026389,70,12.15,-68.27,86.0,17.22
88,Doka,20,SD,1563026461,42,13.52,35.76,90.1,5.28
89,Harindanga,75,IN,1563026462,89,22.04,88.32,87.8,12.75
90,Aginskoye,67,RU,1563026464,78,51.11,114.54,57.99,2.51
91,Kilindoni,0,TZ,1563026465,76,-7.91,39.67,78.22,18.05
92,Kiama,0,AU,1563026320,55,-34.67,150.86,51.01,18.34
93,New Norfolk,20,AU,1563026467,95,-42.78,147.06,42.8,11.41
94,Yulara,0,AU,1563026468,57,-25.24,130.99,50.0,10.29
95,Kapaa,40,US,1563026469,78,22.08,-159.32,78.8,13.87
96,Fortuna,0,ES,1563026471,58,38.18,-1.13,95.0,8.05
97,Dalnerechensk,100,RU,1563026472,77,45.93,133.72,65.8,4.32
98,Namibe,89,AO,1563026473,84,-15.19,12.15,66.52,8.3
99,Te Anau,100,NZ,1563026474,95,-45.41,167.72,44.92,9.17
100,Thompson,75,CA,1563026422,72,55.74,-97.86,62.6,6.93
101,Ketchikan,1,US,1563026415,100,55.34,-131.65,51.8,3.36
102,Karratha,0,AU,1563026477,20,-20.74,116.85,68.68,12.26
103,Mahebourg,75,MU,1563026479,53,-20.41,57.7,73.4,10.29
104,Norman Wells,40,CA,1563026480,81,65.28,-126.83,46.4,5.82
105,Xining,93,CN,1563026481,68,36.62,101.77,52.12,5.61
106,Marawi,100,PH,1563026482,95,8.0,124.29,75.0,2.8
107,Jamestown,0,AU,1563026483,92,-33.21,138.6,39.88,1.57
108,Okhotsk,83,RU,1563026484,96,59.36,143.24,48.34,4.16
109,Arki,75,IN,1563026486,100,31.15,76.97,87.8,3.36
110,Kaitangata,100,NZ,1563026487,73,-46.28,169.85,50.0,1.01
111,Lorengau,98,PG,1563026488,82,-2.02,147.27,78.94,12.41
112,Ouangani,75,YT,1563026489,69,-12.85,45.14,82.4,12.75
113,Praia,0,BR,1563026490,49,-20.25,-43.81,73.4,3.36
114,Khatanga,23,RU,1563026491,62,71.98,102.47,54.64,3.96
115,East London,0,ZA,1563026493,72,-33.02,27.91,64.4,9.17
116,Vila Franca do Campo,20,PT,1563026494,83,37.72,-25.43,71.6,12.75
117,Tasiilaq,40,GL,1563026495,86,65.61,-37.64,41.0,10.29
118,Aklavik,20,CA,1563026496,81,68.22,-135.01,51.8,4.7
119,Esperance,40,AU,1563026474,81,-33.86,121.89,50.0,5.82
120,Alice Springs,0,AU,1563026229,61,-23.7,133.88,50.0,10.29
121,Severo-Kurilsk,72,RU,1563026499,96,50.68,156.12,43.66,15.26
122,Bethel,90,US,1563026233,100,60.79,-161.76,55.4,4.16
123,Ancud,0,CL,1563026502,100,-41.87,-73.83,42.8,11.41
124,Batagay,9,RU,1563026503,83,67.65,134.64,56.26,4.41
125,Atambua,31,ID,1563026504,76,-9.11,124.89,76.42,17.52
126,Saint-Philippe,40,CA,1563026505,88,45.36,-73.48,77.0,16.11
127,Robertsport,100,LR,1563026506,87,6.75,-11.37,77.68,15.17
128,Castro,0,CL,1563026508,100,-42.48,-73.76,42.8,11.41
129,Hofn,90,IS,1563026509,87,64.25,-15.21,55.4,8.05
130,Nguru,26,NG,1563026510,31,12.88,10.45,95.32,4.45
131,Jaromer,75,CZ,1563026329,93,50.36,15.92,64.0,12.75
132,Lompoc,90,US,1563026276,93,34.64,-120.46,55.99,3.36
133,Hithadhoo,2,MV,1563026513,77,-0.6,73.08,84.52,13.18
134,Lazaro Cardenas,0,MX,1563026514,43,28.39,-105.62,80.01,1.99
135,Grootfontein,0,NA,1563026515,9,-19.56,18.1,74.98,8.9
136,Cockburn Town,0,TC,1563026374,77,21.46,-71.14,82.36,16.15
137,Bassar,75,TG,1563026518,65,9.26,0.78,80.6,9.17
138,Le Port,20,FR,1563026519,31,42.87,1.37,89.6,17.22
139,Tabatinga,3,BR,1563026520,45,-21.74,-48.69,77.5,2.08
140,Yar-Sale,96,RU,1563026521,51,66.83,70.83,65.08,2.06
141,Ribeira Grande,40,PT,1563026522,88,38.52,-28.7,75.2,9.17
142,Airai,55,TL,1563026524,83,-8.93,125.41,68.5,5.46
143,San Patricio,100,PY,1563026525,77,-26.98,-56.83,67.06,3.85
144,Qaanaaq,5,GL,1563026526,54,77.48,-69.36,47.44,11.74
145,Tura,100,RU,1563026527,86,64.27,100.22,58.6,1.66
146,Rantepao,100,ID,1563026355,98,-2.97,119.9,58.6,2.68
147,Sao Felix do Xingu,32,BR,1563026529,40,-6.64,-51.99,90.1,6.46
148,Adrar,0,DZ,1563026530,4,27.87,-0.29,116.6,14.99
149,Conde,39,BR,1563026532,64,-11.81,-37.61,80.74,6.78
150,Buala,98,SB,1563026533,77,-8.15,159.59,79.84,5.19
151,Santa Fe,17,AR,1563026534,76,-31.62,-60.7,57.0,5.01
152,Kirkwall,75,GB,1563026535,87,58.98,-2.96,62.6,17.22
153,Kahului,20,US,1563026536,83,20.89,-156.47,77.0,14.99
154,Klaksvik,70,FO,1563026537,100,62.23,-6.59,51.8,10.29
155,Kiskunmajsa,75,HU,1563026539,68,46.49,19.74,70.0,9.17
156,Nouadhibou,0,MR,1563026540,61,20.93,-17.03,78.8,14.99
157,Sao Gabriel da Cachoeira,75,BR,1563026423,88,-0.13,-67.09,78.8,5.82
158,Cayenne,32,GF,1563026542,70,4.94,-52.33,84.2,5.82
159,Tiksi,96,RU,1563026543,67,71.64,128.87,45.28,10.6
160,Tuatapere,100,NZ,1563026544,96,-46.13,167.69,46.0,1.99
161,Takoradi,78,GH,1563026545,70,4.89,-1.75,80.02,9.89
162,Vestmannaeyjar,90,IS,1563026547,100,63.44,-20.27,53.6,6.93
163,Flin Flon,40,CA,1563026548,82,54.77,-101.88,62.6,3.36
164,Darlowo,0,PL,1563026549,70,54.42,16.41,63.64,3.94
165,Ostrovnoy,2,RU,1563026550,64,68.05,39.51,48.88,7.92
166,Hualmay,100,PE,1563026551,82,-11.1,-77.61,62.2,10.76
167,Kidal,33,ML,1563026552,23,18.44,1.41,101.26,10.56
168,Pochutla,90,MX,1563026554,88,15.74,-96.47,75.99,1.43
169,Yellowknife,20,CA,1563026555,76,62.45,-114.38,50.0,4.9
170,Ossora,0,RU,1563026556,91,59.24,163.07,48.34,3.31
171,Parabel,54,RU,1563026557,89,58.71,81.5,69.22,8.16
172,Nchelenge,0,ZM,1563026558,37,-9.35,28.74,79.66,3.4
173,Hasaki,90,JP,1563026500,100,35.73,140.83,73.4,5.82
174,Guerrero Negro,0,MX,1563026561,90,27.97,-114.04,66.34,8.97
175,Birsk,100,RU,1563026562,90,55.42,55.54,71.38,12.5
176,Hay River,75,CA,1563026563,87,60.82,-115.79,51.8,8.05
177,Masvingo,0,ZW,1563026564,26,-20.08,30.83,70.12,8.75
178,Miri,99,NG,1563026565,43,10.31,9.75,87.94,2.77
179,Velingara,97,SN,1563026567,74,13.64,-16.01,79.12,9.19
180,Mitsamiouli,0,KM,1563026568,76,-11.38,43.28,78.58,21.83
181,Dargaville,100,NZ,1563026569,83,-35.94,173.86,60.76,25.68
182,San Rafael,0,AR,1563026570,47,-34.61,-68.33,50.68,1.21
183,Waingapu,4,ID,1563026571,88,-9.65,120.26,65.8,9.13
184,Tongliao,35,CN,1563026572,64,43.61,122.27,71.74,3.09
185,Dikson,77,RU,1563026574,93,73.51,80.55,33.04,5.53
186,Linhares,0,BR,1563026575,43,-19.38,-40.06,81.1,4.23
187,Port Lincoln,74,AU,1563026576,72,-34.72,135.86,55.18,18.28
188,Manokwari,100,ID,1563026577,62,-0.87,134.08,72.28,6.29
189,Touros,75,BR,1563026578,69,-5.2,-35.46,82.4,14.99
190,Kavieng,89,PG,1563026579,82,-2.57,150.8,82.0,12.75
191,Yazd,40,IR,1563026581,12,31.89,54.36,105.8,6.93
192,Qaqortoq,20,GL,1563026582,58,60.72,-46.03,57.2,6.93
193,Sorland,29,NO,1563026583,85,67.67,12.69,49.42,23.78
194,Lasa,75,CY,1563026584,69,34.92,32.53,84.2,12.75
195,Fukue,75,JP,1563026585,94,35.03,136.69,73.0,13.87
196,Taltal,70,CL,1563026587,52,-25.41,-70.49,62.38,5.84
197,Kabalo,100,CD,1563026588,36,-6.05,26.92,86.14,3.31
198,Rancho Palos Verdes,40,US,1563026589,93,33.75,-118.37,68.0,3.02
199,Konya,40,TR,1563026328,29,37.87,32.48,75.2,8.05
200,Avera,75,US,1563026591,78,33.19,-82.53,84.0,9.17
201,Komsomolskoye,0,UA,1563026592,50,45.02,34.02,71.92,11.81
202,Egvekinot,100,RU,1563026594,73,66.32,-179.17,62.38,1.81
203,Suntar,71,RU,1563026595,85,62.16,117.65,61.66,5.14
204,Nikolskoye,40,RU,1563026596,52,59.7,30.79,64.4,11.18
205,Shitanjing,84,CN,1563026597,28,39.23,106.34,78.01,4.0
206,Avarua,100,CK,1563026598,94,-21.21,-159.78,68.0,2.24
207,Irbeyskoye,88,RU,1563026599,64,55.64,95.45,62.38,6.24
208,Port Augusta,0,AU,1563026601,93,-32.49,137.76,39.2,3.36
209,Sisimiut,100,GL,1563026602,87,66.94,-53.67,41.5,12.75
210,Geraldton,75,CA,1563026603,77,49.72,-86.95,59.0,14.99
211,Panaba,100,MX,1563026604,63,21.28,-88.27,86.68,9.15
212,Cabo San Lucas,5,MX,1563026444,65,22.89,-109.91,80.01,11.41
213,Zyryanka,90,RU,1563026606,58,65.73,150.89,67.24,2.26
214,Belyy Yar,0,RU,1563026607,77,53.6,91.39,68.0,4.47
215,Oga,75,IT,1563026609,43,46.46,10.35,59.0,9.17
216,Watertown,90,US,1563026408,83,44.9,-97.12,73.4,6.93
217,Tabas,0,IR,1563026611,9,33.6,56.92,114.8,2.24
218,Calama,0,CL,1563026612,19,-22.46,-68.93,46.4,17.22
219,Taoudenni,43,ML,1563026613,4,22.68,-3.98,117.28,19.98
220,Georgetown,75,GY,1563026614,79,6.8,-58.16,84.2,13.87
221,Oksfjord,0,NO,1563026616,66,70.24,22.35,64.4,17.22
222,Camacha,40,PT,1563026617,73,33.08,-16.33,73.4,13.87
223,Lagoa,20,PT,1563026618,78,37.14,-8.45,78.01,10.29
224,Iqaluit,40,CA,1563026619,81,63.75,-68.52,50.0,3.36
225,Oeiras,0,BR,1563026620,35,-7.01,-42.13,90.1,9.95
226,Moussoro,45,TD,1563026621,24,13.64,16.49,98.74,0.78
227,Saskylakh,85,RU,1563026623,63,71.97,114.09,54.64,7.85
228,Pisco,90,PE,1563026598,30,-13.71,-76.2,71.6,4.7
229,Maryville,75,US,1563026625,100,35.76,-83.97,82.99,5.82
230,Santiago del Estero,98,AR,1563026433,69,-27.8,-64.26,61.12,5.97
231,Nara,75,JP,1563026627,94,34.68,135.8,71.6,4.7
232,Bayir,20,TR,1563026628,25,37.27,28.22,90.0,18.34
233,Zolotkovo,0,RU,1563026630,56,55.53,41.1,63.82,5.91
234,Saint Anthony,1,US,1563026631,71,43.97,-111.68,61.0,5.82
235,Inyonga,41,TZ,1563026632,29,-6.72,32.06,82.72,5.01
236,Rawson,100,AR,1563026633,49,-43.3,-65.11,50.5,18.84
237,Lata,79,IN,1563026634,92,30.78,78.62,44.02,5.37
238,Kalemie,8,CD,1563026636,37,-5.95,29.2,79.48,7.11
239,Constitucion,20,MX,1563026637,100,23.99,-104.67,64.99,3.36
240,Eyl,58,SO,1563026638,35,7.98,49.82,90.64,19.13
241,Gondanglegi,9,ID,1563026639,92,-7.75,112.01,66.16,6.71
242,Carnarvon,0,ZA,1563026640,16,-30.97,22.13,66.52,11.23
243,Turukhansk,15,RU,1563026642,70,65.8,87.96,59.14,12.08
244,Nishihara,20,JP,1563026643,100,35.74,139.53,78.01,5.82
245,Nakapiripirit,100,UG,1563026644,75,1.81,34.71,73.18,6.67
246,Christchurch,35,NZ,1563026601,51,-43.53,172.64,59.0,18.34
247,Leningradskiy,81,RU,1563026646,91,69.38,178.42,40.6,9.33
248,Haines City,1,US,1563026647,83,28.11,-81.63,82.0,5.82
249,Rosetta,0,EG,1563026649,48,31.4,30.42,86.0,13.87
250,Huangpi,0,CN,1563026650,83,30.88,114.37,78.8,8.95
251,San Pedro,0,AR,1563026651,68,-33.68,-59.66,55.72,5.91
252,Huaicheng,100,CN,1563026652,95,23.91,112.19,76.24,2.24
253,Terrace,75,CA,1563026562,93,54.52,-128.61,59.0,6.93
254,Bubaque,33,GW,1563026655,81,11.28,-15.83,79.48,8.52
255,Hambantota,0,LK,1563026656,88,6.12,81.12,82.4,8.05
256,Chiang Khong,20,LA,1563026657,70,20.27,100.41,84.2,2.24
257,Atherton,0,AU,1563026658,82,-17.27,145.48,60.8,3.36
258,Sao Jose da Coroa Grande,21,BR,1563026660,74,-8.9,-35.15,79.48,8.48
259,Arandis,0,NA,1563026661,91,-22.42,14.98,55.99,5.01
260,Mizan Teferi,100,ET,1563026662,99,6.99,35.58,63.46,1.63
261,Nome,75,US,1563026663,74,30.04,-94.42,82.99,18.34
262,Swift Current,1,CA,1563026664,93,50.29,-107.8,60.8,6.93
263,Vao,62,EE,1563026665,45,59.1,26.19,64.18,8.59
264,Daru,100,PG,1563026667,90,-9.07,143.21,72.82,8.08
265,Damaturu,39,NG,1563026668,33,11.75,11.96,94.24,5.1
266,Neiafu,20,TO,1563026669,93,-18.65,-173.98,62.6,18.57
267,Santa Maria del Oro,0,MX,1563026670,51,25.95,-105.37,71.74,0.96
268,Buraydah,0,SA,1563026671,15,26.33,43.97,105.8,13.87
269,kimparana,69,ML,1563026673,35,12.83,-4.92,95.32,6.62
270,Banda Aceh,9,ID,1563026674,75,5.56,95.32,84.52,11.56
271,Laguna,40,BZ,1563026675,94,16.17,-88.94,78.8,1.63
272,Grand Gaube,75,MU,1563026676,53,-20.01,57.66,73.4,10.29
273,Richards Bay,0,ZA,1563026678,76,-28.77,32.06,71.38,24.7
274,Golcuv Jenikov,75,CZ,1563026679,93,49.82,15.48,66.0,12.75
275,Pacific Grove,90,US,1563026534,87,36.62,-121.92,60.01,3.36
276,Faanui,0,PF,1563026681,73,-16.48,-151.75,77.5,6.08
277,Bambous Virieux,75,MU,1563026682,53,-20.34,57.76,73.4,10.29
278,Rio Grande,90,BR,1563026684,93,-32.03,-52.1,57.2,11.41
279,Pevek,93,RU,1563026685,96,69.7,170.27,37.54,3.74
280,Harvard,1,US,1563026686,83,40.62,-98.1,75.2,9.17
281,Meulaboh,97,ID,1563026687,76,4.14,96.13,83.62,7.52
282,Opole,70,PL,1563026688,63,50.67,17.92,70.0,1.99
283,Abu Zabad,8,SD,1563026689,32,12.35,29.25,92.08,5.41
284,Kloulklubed,90,PW,1563026691,88,7.04,134.26,77.0,12.75
285,Nioro,100,GM,1563026692,36,13.79,-15.05,95.86,5.82
286,Lebu,100,ET,1563026693,83,8.96,38.73,61.48,2.86
287,Nhulunbuy,90,AU,1563026694,83,-12.18,136.78,73.4,11.41
288,Talnakh,75,RU,1563026695,87,69.49,88.39,51.8,6.71
289,Tiznit,0,MA,1563026689,89,29.7,-9.73,68.5,9.57
290,Misratah,0,LY,1563026698,67,32.38,15.09,81.64,9.82
291,De Aar,0,ZA,1563026633,15,-30.65,24.01,67.24,8.7
292,Manyana,0,AU,1563026700,52,-35.26,150.51,51.01,18.34
293,Caravelas,2,BR,1563026701,61,-17.73,-39.27,77.68,5.03
294,Nanortalik,3,GL,1563026702,77,60.14,-45.24,45.82,7.4
295,Deputatskiy,100,RU,1563026703,92,69.3,139.9,49.6,2.04
296,Anadyr,0,RU,1563026704,76,64.73,177.51,57.2,4.47
297,Amstetten,75,AT,1563026706,77,48.12,14.88,68.0,16.11
298,Solenzo,95,BF,1563026707,54,12.18,-4.08,87.04,9.15
299,Khorinsk,47,RU,1563026708,85,52.16,109.78,51.76,3.24
300,Araouane,0,ML,1563026710,13,18.9,-3.53,110.08,13.96
301,Kelheim,75,DE,1563026712,77,48.92,11.87,70.0,12.75
302,Middle Island,1,US,1563026713,64,40.88,-72.94,81.0,8.05
303,Linxia,15,CN,1563026714,51,35.6,103.21,58.24,8.12
304,Khuzhir,89,RU,1563026715,66,53.19,107.35,54.64,1.68
305,Tiarei,10,PF,1563026716,83,-17.53,-149.33,73.4,6.93
306,Noumea,75,NC,1563026718,88,-22.28,166.46,66.2,3.36
307,Srednekolymsk,92,RU,1563026719,58,67.46,153.71,69.76,8.25
308,Storforshei,75,NO,1563026720,77,66.4,14.52,59.0,5.82
309,Launceston,40,AU,1563026721,80,-41.43,147.14,42.01,10.29
310,Nicoya,0,CR,1563026465,88,10.15,-85.45,77.0,4.7
311,Tautira,0,PF,1563026724,83,-17.73,-149.15,73.4,6.93
312,Quelimane,75,MZ,1563026725,57,-17.88,36.89,78.8,11.41
313,Morant Bay,20,JM,1563026626,52,17.88,-76.41,87.8,21.92
314,Yeppoon,100,AU,1563026727,66,-23.13,150.74,55.4,4.81
315,San Antero,0,CO,1563026728,88,9.38,-75.76,80.6,13.09
316,Cap Malheureux,75,MU,1563026730,53,-19.98,57.61,73.4,10.29
317,Kensington,75,CA,1563026731,100,46.44,-63.64,69.01,8.05
318,Elin Pelin,40,BG,1563026477,64,42.67,23.6,75.99,9.17
319,Cidreira,91,BR,1563026733,85,-30.17,-50.22,65.62,6.85
320,Victoria,75,BN,1563026734,83,5.28,115.24,78.8,3.36
321,Kruisfontein,0,ZA,1563026736,79,-34.0,24.73,58.06,4.27
322,Hobyo,17,SO,1563026737,64,5.35,48.53,81.28,30.13
323,Faya,40,SA,1563026738,9,18.39,42.45,91.4,17.22
324,Mount Gambier,75,AU,1563026678,75,-37.83,140.78,46.4,12.75
325,Garowe,82,SO,1563026740,34,8.41,48.48,88.66,22.26
326,Granadilla de Abona,20,ES,1563026742,61,28.12,-16.58,78.8,21.92
327,Albion,1,US,1563026743,83,41.69,-98.0,75.99,9.71
328,Kutum,100,SD,1563026744,43,14.2,24.66,82.0,14.32
329,Yumen,2,CN,1563026745,35,40.29,97.04,73.36,13.18
330,Biltine,48,TD,1563026746,23,14.53,20.93,98.38,6.67
331,West Bay,75,CA,1563026747,87,49.34,-123.21,64.0,2.24
332,Gamba,100,CN,1563026749,60,28.28,88.52,46.18,7.78
333,Redmond,75,US,1563026624,77,47.67,-122.12,63.0,3.36
334,San Quintin,34,PH,1563026751,85,17.54,120.52,76.78,2.15
335,Hamilton,75,CA,1563026605,88,43.26,-79.87,79.0,13.87
336,Broken Hill,0,AU,1563026753,70,-31.97,141.45,42.8,6.93
337,Torbay,75,CA,1563026754,77,47.66,-52.73,64.0,9.17
338,Sumbe,0,AO,1563026755,82,-11.2,13.84,75.2,10.29
339,Ouesso,90,CG,1563026757,60,1.61,16.05,84.52,3.04
340,Poso,100,ID,1563026758,96,-1.4,120.75,61.48,3.87
341,Mackay,20,CA,1563026759,82,53.65,-115.58,55.4,3.36
342,Upernavik,100,GL,1563026760,80,72.79,-56.15,45.64,9.13
343,Hun,100,BE,1563026762,68,50.34,4.87,73.0,9.17
344,Chumikan,54,RU,1563026763,99,54.72,135.31,48.34,2.33
345,Kirovskiy,100,RU,1563026764,84,45.09,133.51,63.28,4.34
346,Yanam,75,IN,1563026765,74,16.73,82.22,86.0,11.41
347,Fairbanks,90,US,1563026669,93,64.84,-147.72,60.8,3.36
348,Zhicheng,0,CN,1563026768,36,35.04,112.59,83.26,6.96
349,Carutapera,88,BR,1563026769,90,-1.2,-46.02,79.84,7.52
350,Sungaipenuh,94,ID,1563026770,97,-2.08,101.38,74.8,1.45
351,Khandyga,32,RU,1563026771,68,62.65,135.58,64.72,4.18
352,Marzuq,98,YE,1563026772,20,14.4,46.47,91.9,5.82
353,Zharkovskiy,72,RU,1563026774,46,55.85,32.27,64.72,3.02
354,Alofi,55,NU,1563026775,94,-19.06,-169.92,69.8,6.93
355,Elblag,20,PL,1563026776,63,54.15,19.41,68.0,12.75
356,Margate,20,AU,1563026777,95,-43.03,147.26,42.8,11.41
357,Riyadh,0,SA,1563026778,6,24.63,46.72,109.4,13.87
358,Vallenar,97,CL,1563026779,23,-28.58,-70.76,65.8,3.11
359,Kungurtug,100,RU,1563026781,89,50.6,97.53,52.12,2.39
360,Olot,0,ES,1563026782,33,42.18,2.49,93.99,9.17
361,Port Macquarie,0,AU,1563026784,37,-31.43,152.91,53.01,10.29
362,Porbandar,100,IN,1563026785,84,21.64,69.61,82.72,20.98
363,Arraial do Cabo,0,BR,1563026786,73,-22.97,-42.02,73.4,5.82
364,Nemuro,100,JP,1563026787,96,43.32,145.57,54.82,15.59
365,Scalea,1,IT,1563026789,41,39.82,15.79,88.0,3.0
366,Beringovskiy,95,RU,1563026790,71,63.05,179.32,61.66,2.3
367,Palana,0,RU,1563026791,84,59.08,159.95,53.2,2.08
368,Sohag,0,EG,1563026792,18,26.55,31.7,107.6,23.04
369,Kalmunai,91,LK,1563026793,84,7.42,81.82,78.76,2.8
370,Yuzhnyy,36,RU,1563026795,70,53.54,39.45,64.36,6.17
371,Umarkot,88,PK,1563026796,53,25.37,69.74,91.0,23.09
372,Ilam,0,IR,1563026635,12,33.64,46.42,95.0,11.41
373,Luau,0,CD,1563026798,17,-10.7,22.23,86.5,2.53
374,Itzehoe,75,DE,1563026799,82,53.92,9.52,71.01,10.29
375,Tateyama,100,JP,1563026800,89,36.66,137.31,72.0,4.0
376,Sao Domingos,0,BR,1563026802,16,-13.4,-46.32,89.92,5.93
377,Lusaka,0,ZM,1563026803,27,-15.42,28.28,74.08,10.13
378,Susangerd,0,IR,1563026804,9,31.56,48.19,113.0,13.87
379,Letnyaya Stavka,32,RU,1563026805,41,45.43,43.44,76.42,5.99
380,Murgab,0,TM,1563026807,15,37.5,61.97,111.2,9.17
381,Zaigrayevo,59,RU,1563026808,72,51.83,108.27,68.0,15.66
382,Posse,0,BR,1563026809,18,-14.08,-46.36,89.74,5.21
383,Tessalit,28,ML,1563026810,13,20.2,1.01,107.38,18.21
384,Tirur,75,IN,1563026811,78,10.92,75.92,86.0,5.82
385,Bristol,75,GB,1563026813,56,51.45,-2.6,73.99,6.82
386,Taga,60,ID,1563026814,91,-8.61,120.44,65.8,5.19
387,Ipira,73,BR,1563026815,75,-27.41,-51.77,67.06,1.32
388,Burns Lake,0,CA,1563026816,71,54.23,-125.76,54.28,3.02
389,Phan Thiet,46,VN,1563026678,89,10.93,108.1,76.06,4.41
390,Batavia,1,US,1563026572,83,43.0,-78.19,75.99,10.29
391,Requena,20,ES,1563026819,43,39.49,-1.1,91.99,13.87
392,Marihatag,100,PH,1563026821,97,8.8,126.3,71.02,2.62
393,Santa Leopoldina,0,BR,1563026822,57,-20.1,-40.53,80.01,8.05
394,Kaseda,98,JP,1563026823,91,31.42,130.32,78.4,12.03
395,Ahipara,100,NZ,1563026824,84,-35.17,173.16,61.84,30.31
396,Dingle,100,PH,1563026825,89,11.0,122.67,74.44,3.38
397,Tazovskiy,67,RU,1563026827,65,67.47,78.7,49.6,9.44
398,Vila Velha,75,BR,1563026828,83,-3.71,-38.6,86.0,8.05
399,Birobidzhan,100,RU,1563026829,97,48.79,132.93,63.82,1.86
400,Velika Kladusa,20,BA,1563026830,60,45.19,15.81,75.2,3.36
401,Cruces,75,CU,1563026831,78,22.34,-80.27,82.4,6.93
402,Sao Joao da Barra,0,BR,1563026833,53,-21.64,-41.05,75.2,11.41
403,Dongsheng,0,CN,1563026834,91,29.72,112.52,71.02,6.64
404,Gimli,0,CA,1563026835,66,50.63,-96.99,68.0,5.01
405,Agno,20,IT,1563026836,22,46.0,8.9,90.0,16.11
406,Namatanai,53,PG,1563026837,80,-3.66,152.44,78.22,6.53
407,Novikovo,23,RU,1563026839,66,51.15,37.89,67.24,6.85
408,Altay,62,CN,1563026840,60,47.83,88.13,54.28,5.23
409,Port Blair,40,IN,1563026656,78,11.67,92.75,82.4,9.17
410,Itarema,62,BR,1563026842,63,-2.92,-39.92,84.7,12.93
411,Dehloran,0,IR,1563026843,9,32.69,47.27,96.22,21.94
412,Dakoro,38,NE,1563026845,32,14.51,6.76,94.78,6.35
413,Ilhabela,2,BR,1563026846,68,-23.78,-45.36,73.9,2.53
414,Kaeo,100,NZ,1563026847,88,-35.1,173.78,60.01,10.0
415,Tual,77,ID,1563026848,78,-5.67,132.75,77.14,18.86
416,Labuhan,71,ID,1563026850,92,-2.54,115.51,71.2,2.1
417,Yarim,90,YE,1563026851,37,14.3,44.38,82.54,7.99
418,Ati,100,TD,1563026852,31,13.21,18.34,93.7,6.38
419,Lazarev,9,RU,1563026854,94,52.23,141.51,48.88,6.06
420,Nong Kung Si,40,TH,1563026855,62,16.65,103.3,86.0,2.24
421,Rocha,49,UY,1563026856,81,-34.48,-54.34,54.28,10.69
422,New Castle,1,US,1563026673,83,41.0,-80.35,77.0,3.36
423,Viedma,67,AR,1563026858,50,-40.81,-62.99,52.66,13.02
424,Husavik,0,CA,1563026859,66,50.56,-96.99,68.0,5.01
425,Aguimes,20,ES,1563026861,65,27.91,-15.45,78.01,32.21
426,Corinto,75,CO,1563026862,78,3.17,-76.26,71.6,3.36
427,Seoul,1,KR,1563026602,94,37.57,126.98,75.2,1.12
428,Garden City,1,US,1563026864,100,43.62,-116.24,72.0,2.19
429,Jiuquan,37,CN,1563026865,39,39.73,98.49,66.52,3.87
430,Mufulira,0,ZM,1563026866,21,-12.55,28.24,76.42,4.41
431,Vanimo,2,PG,1563026868,71,-2.67,141.3,82.9,5.3
432,Pudozh,14,RU,1563026869,52,61.81,36.54,56.8,7.07
433,Jinchang,100,CN,1563026870,65,38.52,102.19,60.4,20.29
434,Zabid,79,YE,1563026871,56,14.2,44.5,76.06,12.73
435,Kodinsk,0,RU,1563026872,55,58.6,99.18,64.54,1.79
436,Saurimo,0,AO,1563026873,32,-9.66,20.4,84.2,3.11
437,Xiaoweizhai,100,CN,1563026875,96,26.23,107.51,64.54,2.17
438,Payakumbuh,19,ID,1563026876,98,-0.23,100.63,68.14,3.78
439,Gravdal,20,NO,1563026877,71,59.79,5.78,64.0,19.46
440,Phalaborwa,0,ZA,1563026878,38,-23.95,31.14,73.4,2.24
441,Honiara,40,SB,1563026880,100,-9.43,159.96,75.2,4.92
442,Baunatal,75,DE,1563026881,87,51.26,9.41,64.4,12.75
443,Iquique,90,CL,1563026882,72,-20.22,-70.14,59.0,3.36
444,Shemonaikha,0,KZ,1563026883,74,50.63,81.92,68.32,9.4
445,Grindavik,75,IS,1563026884,87,63.84,-22.43,55.4,10.29
446,Makakilo City,20,US,1563026886,65,21.35,-158.09,80.6,11.41
447,New Ulm,1,US,1563026691,69,44.31,-94.46,75.99,9.17
448,Gorontalo,86,ID,1563026628,81,0.54,123.06,73.0,7.07
449,Itoman,40,JP,1563026889,83,26.12,127.67,84.2,14.99
450,Nha Trang,20,VN,1563026890,66,12.24,109.19,86.0,14.99
451,Clearlake,1,US,1563026891,77,38.96,-122.63,66.0,3.56
452,Bakchar,80,RU,1563026893,67,57.02,82.07,68.32,4.03
453,Chiredzi,0,ZW,1563026894,40,-21.05,31.67,73.72,6.15
454,Mehamn,100,NO,1563026895,79,71.03,27.85,44.2,7.96
455,Aswan,0,EG,1563026896,8,24.09,32.9,111.2,11.41
456,Qingdao,7,CN,1563026897,74,36.09,120.35,82.0,4.47
457,Ust-Kuyga,100,RU,1563026898,60,70.0,135.55,51.76,6.67
458,Nuevo Progreso,1,US,1563026900,69,26.05,-97.95,88.0,5.82
459,Changping,0,CN,1563026901,62,40.22,116.23,84.2,4.47
460,Ariquemes,45,BR,1563026902,58,-9.91,-63.03,87.94,1.01
461,Santa Isabel do Rio Negro,51,BR,1563026903,75,-0.41,-65.02,82.72,4.52
462,Savino,27,RU,1563026904,60,56.59,41.22,62.38,6.08
463,Inhambane,40,MZ,1563026906,57,-23.87,35.38,80.6,11.41
464,Coquimbo,0,CL,1563026907,65,-29.95,-71.34,44.6,6.93
465,Champerico,75,MX,1563026908,94,16.38,-93.6,69.8,2.24
466,Inuvik,20,CA,1563026909,76,68.36,-133.71,51.8,4.7
467,Yamada,75,JP,1563026910,88,36.58,137.08,72.0,1.74
468,Baruun-Urt,0,MN,1563026911,50,46.68,113.28,67.06,7.56
469,Vestmanna,74,FO,1563026913,100,62.16,-7.17,51.8,10.29
470,Gazanjyk,51,TM,1563026914,35,39.24,55.52,97.3,21.63
471,Kearney,1,US,1563026915,83,40.7,-99.08,73.99,9.17
472,Xuddur,37,SO,1563026916,47,4.12,43.89,85.06,18.59
473,Fatezh,4,RU,1563026918,60,52.09,35.86,66.16,4.16
474,Shangzhi,40,CN,1563026919,92,45.21,127.96,60.04,2.71
475,Broome,75,GB,1563026920,68,52.47,1.45,72.0,8.05
476,Iranshahr,40,IR,1563026921,21,27.21,60.69,109.4,11.41
477,Port Keats,1,AU,1563026922,33,-14.25,129.55,71.2,14.07
478,Clonakilty,75,IE,1563026924,60,51.62,-8.87,68.0,10.29
479,Aykhal,90,RU,1563026925,77,65.95,111.51,62.6,4.47
480,Havoysund,0,NO,1563026926,66,71.0,24.66,51.8,17.22
481,Birjand,0,IR,1563026927,6,32.86,59.22,98.6,16.11
482,Yarmouth,90,CA,1563026801,88,43.84,-66.12,66.99,8.05
483,Kaka,0,TM,1563026930,9,37.35,59.62,105.04,4.92
484,Raudeberg,0,NO,1563026931,63,61.99,5.14,64.4,21.92
485,Narsaq,20,GL,1563026932,58,60.91,-46.05,57.2,6.93
486,Mubi,1,NG,1563026933,44,10.27,13.26,89.2,0.34
487,Manitouwadge,40,CA,1563026934,82,49.12,-85.84,60.8,2.24
488,Alta Gracia,0,AR,1563026936,66,-31.66,-64.43,55.0,2.24
489,Kikwit,95,CD,1563026937,63,-5.04,18.82,77.14,5.66
490,Naze,90,NG,1563026938,78,5.43,7.07,81.28,5.82
491,Cabedelo,75,BR,1563026939,74,-6.97,-34.84,82.4,4.7
492,Marabba,100,SD,1563026940,31,12.35,32.18,94.24,6.71
493,The Pas,1,CA,1563026941,72,53.82,-101.24,66.2,10.29
494,Allauch,0,FR,1563026943,25,43.34,5.48,97.0,26.4
495,Gamovo,40,RU,1563026944,78,57.87,56.11,77.0,4.47
496,Mount Pleasant,1,US,1563026679,69,33.16,-94.97,84.0,8.72
497,Kalianget,20,ID,1563026913,69,-7.35,109.91,80.6,8.05
498,Puerto Ayacucho,75,CO,1563026947,88,5.66,-67.63,78.8,3.4
499,Anloga,20,GH,1563026948,74,5.79,0.9,84.2,11.41
500,Mount Barker,20,AU,1563026950,66,-35.06,138.86,53.01,11.41
501,Masaka,100,UG,1563026951,88,-0.34,31.75,63.82,5.03
502,Muroto,100,JP,1563026952,97,33.37,134.14,74.08,15.37
503,Erenhot,96,CN,1563026954,25,43.65,111.97,82.36,11.83
504,Tshikapa,40,CD,1563026955,33,-6.42,20.79,89.56,3.18
505,Mogadouro,34,PT,1563026956,36,41.34,-6.71,83.8,20.11
506,Kasongo-Lunda,28,CD,1563026957,27,-6.48,16.82,89.02,3.78
507,Muros,40,ES,1563026931,78,42.77,-9.06,78.01,6.93
508,Zhigansk,83,RU,1563026959,67,66.77,123.37,55.0,10.56
509,San Vicente,90,EC,1563026808,88,-0.59,-80.41,71.6,11.41
510,Langenhagen,75,DE,1563026962,77,52.44,9.74,71.01,16.11
511,Mount Isa,85,AU,1563026963,47,-20.73,139.49,59.0,16.11
512,Charters Towers,54,AU,1563026964,65,-20.07,146.27,58.06,12.08
513,Benguela,40,AO,1563026965,78,-12.58,13.4,75.2,6.93
514,Tovuz,1,AZ,1563026967,33,41.0,45.62,89.6,4.68
515,Cessnock,0,AU,1563026968,63,-32.83,151.35,51.01,13.87
516,Topola,40,RS,1563026969,44,44.25,20.68,77.0,3.36
517,Bonthe,100,SL,1563026970,88,7.53,-12.5,77.14,13.11
518,Batagay-Alyta,88,RU,1563026962,94,67.8,130.41,49.42,1.61
519,Hailun,98,CN,1563026972,81,47.46,126.97,66.88,3.2
520,Moron,0,HT,1563026974,67,18.56,-74.26,83.62,5.55
521,Luderitz,0,NA,1563026975,46,-26.65,15.16,73.4,8.05
522,Kirakira,75,SB,1563026976,85,-10.46,161.92,78.22,4.92
523,Bourail,89,NC,1563026977,90,-21.57,165.5,61.84,0.58
524,Concepcion del Oro,0,MX,1563026978,59,24.63,-101.42,66.34,1.36
525,Mezhdurechensk,89,RU,1563026980,72,53.69,88.07,64.9,4.27
526,Tecpan,100,GT,1563026981,96,14.76,-90.99,54.0,2.57
527,Walvis Bay,0,NA,1563026982,53,-22.95,14.51,77.0,5.82
528,Shenjiamen,100,CN,1563026983,92,29.96,122.3,74.26,6.2
529,Pandan,100,PH,1563026984,80,11.72,122.09,80.56,12.41
530,Umm Lajj,0,SA,1563026941,68,25.02,37.27,88.12,8.5
531,Kudahuvadhoo,43,MV,1563026987,77,2.67,72.89,83.98,10.33
532,Doha,0,QA,1563026766,53,25.29,51.53,109.4,16.11
533,Juneau,90,US,1563026989,100,58.3,-134.42,55.99,0.89
534,Pravia,40,ES,1563026990,78,43.49,-6.11,73.99,13.87
